{"type": "FeatureCollection", "features": [{"type": "Feature", "geometry": {"type": "Point", "coordinates": [-127.674802, 55.256489]}, "properties": {"kind": "places-points", "title": "Gitanmaax"}}, {"type": "Feature", "geometry": {"type": "Point", "coordinates": [-127.691748, 55.35075]}, "properties": {"kind": "places-points", "title": "Kispiox"}}, {"type": "Feature", "geometry": {"type": "Point", "coordinates": [-122.622734, 54.003664]}, "properties": {"kind": "places-points", "title": "Lheidli-T'enneh"}}, {"type": "Feature", "geometry": {"type": "Point", "coordinates": [-121.964765, 50.770176]}, "properties": {"kind": "places-points", "title": "Xwisten"}}, {"type": "Feature", "geometry": {"type": "Point", "coordinates": [-121.442475, 49.382993]}, "properties": {"kind": "places-points", "title": "Chawathil"}}, {"type": "Feature", "geometry": {"type": "Point", "coordinates": [-122.089347, 51.592928]}, "properties": {"kind": "places-points", "title": "Xg\u00e9t\u2019tem\u2019"}}, {"type": "Feature", "geometry": {"type": "Point", "coordinates": [-120.251652, 50.966485]}, "properties": {"kind": "places-points", "title": "Pellt\u00edq\u2019t"}}, {"type": "Feature", "geometry": {"type": "Point", "coordinates": [-121.954304, 52.089713]}, "properties": {"kind": "places-points", "title": "T\u2019\u00e9xel\u2019c"}}, {"type": "Feature", "geometry": {"type": "Point", "coordinates": [-122.123529, 52.268393]}, "properties": {"kind": "places-points", "title": "Xats\u2019\u00fall "}}, {"type": "Feature", "geometry": {"type": "Point", "coordinates": [-121.828755, 50.882798]}, "properties": {"kind": "places-points", "title": "Tsk\u2019w\u00e9ylecw"}}, {"type": "Feature", "geometry": {"type": "Point", "coordinates": [-119.694672, 50.817125]}, "properties": {"kind": "places-points", "title": "Qw7ewt"}}, {"type": "Feature", "geometry": {"type": "Point", "coordinates": [-121.586667, 51.091389]}, "properties": {"kind": "places-points", "title": "Llenllen\u00e9y\u2019ten"}}, {"type": "Feature", "geometry": {"type": "Point", "coordinates": [-122.14374, 52.128008]}, "properties": {"kind": "places-points", "title": "Esk\u2019\u00e9t"}}, {"type": "Feature", "geometry": {"type": "Point", "coordinates": [-122.234758, 51.638908]}, "properties": {"kind": "places-points", "title": "Stsw\u00e9cem\u2019c"}}, {"type": "Feature", "geometry": {"type": "Point", "coordinates": [-121.600328, 51.672786]}, "properties": {"kind": "places-points", "title": "Tsq\u2019\u00e9scen"}}, {"type": "Feature", "geometry": {"type": "Point", "coordinates": [-120.299102, 50.682532]}, "properties": {"kind": "places-points", "title": "Tk\u2019eml\u00faps"}}, {"type": "Feature", "geometry": {"type": "Point", "coordinates": [-119.138466, 50.551313]}, "properties": {"kind": "places-points", "title": "Splats\u00edn"}}, {"type": "Feature", "geometry": {"type": "Point", "coordinates": [-120.847624, 50.751563]}, "properties": {"kind": "places-points", "title": "Sk\u00edtsesten"}}, {"type": "Feature", "geometry": {"type": "Point", "coordinates": [-120.139405, 51.186928]}, "properties": {"kind": "places-points", "title": "Simpcw"}}, {"type": "Feature", "geometry": {"type": "Point", "coordinates": [-116.028423, 50.504375]}, "properties": {"kind": "places-points", "title": "Kenp\u00e9sq\u2019t"}}, {"type": "Feature", "geometry": {"type": "Point", "coordinates": [-119.716902, 50.773478]}, "properties": {"kind": "places-points", "title": "Sk\u2019atsin "}}, {"type": "Feature", "geometry": {"type": "Point", "coordinates": [-121.322, 50.7753]}, "properties": {"kind": "places-points", "title": "St\u2019uxwt\u00e9ws "}}, {"type": "Feature", "geometry": {"type": "Point", "coordinates": [-119.70469236374, 50.829167663279]}, "properties": {"kind": "places-points", "title": "Sexqeltq\u00edn"}}, {"type": "Feature", "geometry": {"type": "Point", "coordinates": [-122.39353179932, 51.946592788943]}, "properties": {"kind": "places-points", "title": "Tl\u2019esqox"}}, {"type": "Feature", "geometry": {"type": "Point", "coordinates": [-121.56543731689, 50.13323387917]}, "properties": {"kind": "places-points", "title": "s\u00edsqe\u0294"}}, {"type": "Feature", "geometry": {"type": "Point", "coordinates": [-131.99214935303, 53.265828963015]}, "properties": {"kind": "places-points", "title": "SG\u0331IIDAGIDS"}}, {"type": "Feature", "geometry": {"type": "Point", "coordinates": [-127.68928527832, 55.352671434384]}, "properties": {"kind": "places-points", "title": "Kispiox"}}, {"type": "Feature", "geometry": {"type": "Point", "coordinates": [-121.56372070312, 50.115404771833]}, "properties": {"kind": "places-points", "title": "n\u019b\u0313\u0259q\u0313\u019b\u0313\u00e1q\u0313tn"}}, {"type": "Feature", "geometry": {"type": "Point", "coordinates": [-131.99785709381, 53.248653753009]}, "properties": {"kind": "places-points", "title": "HLG\u0331AAGILDA"}}, {"type": "Feature", "geometry": {"type": "Point", "coordinates": [-127.49299049377, 50.72281851972]}, "properties": {"kind": "places-points", "title": "Gwa'sala-'Nakwaxda'xw"}}, {"type": "Feature", "geometry": {"type": "Point", "coordinates": [-127.67864227295, 55.312637867482]}, "properties": {"kind": "places-points", "title": "Sik-edakh"}}, {"type": "Feature", "geometry": {"type": "Point", "coordinates": [-132.14960575104, 54.011526416769]}, "properties": {"kind": "places-points", "title": "jagwaal"}}, {"type": "Feature", "geometry": {"type": "Point", "coordinates": [-132.14821100235, 54.010328543514]}, "properties": {"kind": "places-points", "title": "\u1e35\u2019yang"}}, {"type": "Feature", "geometry": {"type": "Point", "coordinates": [-132.15106487274, 54.012156862526]}, "properties": {"kind": "places-points", "title": "iijaaw"}}, {"type": "Feature", "geometry": {"type": "Point", "coordinates": [-132.15260982513, 54.01349337594]}, "properties": {"kind": "places-points", "title": "aaw"}}, {"type": "Feature", "geometry": {"type": "Point", "coordinates": [-132.14904785156, 54.020276150064]}, "properties": {"kind": "places-points", "title": "4 villages of Massett"}}, {"type": "Feature", "geometry": {"type": "Point", "coordinates": [-121.32820129395, 50.435641314823]}, "properties": {"kind": "places-points", "title": "nk\u0313\u0259mc\u00edn"}}, {"type": "Feature", "geometry": {"type": "Point", "coordinates": [-123.34677815437, 48.493032675965]}, "properties": {"kind": "places-points", "title": "PKOLS"}}, {"type": "Feature", "geometry": {"type": "Point", "coordinates": [-121.58123016357, 50.231943953544]}, "properties": {"kind": "places-points", "title": "\u019b\u0313q\u0313\u0259mc\u00edn"}}, {"type": "Feature", "geometry": {"type": "Point", "coordinates": [-121.44836425781, 49.914093157463]}, "properties": {"kind": "places-points", "title": "Nkats\u00e1m"}}, {"type": "Feature", "geometry": {"type": "Point", "coordinates": [-120.81115722656, 50.111772102423]}, "properties": {"kind": "places-points", "title": "Scw\u2019\u0301exmx"}}, {"type": "Feature", "geometry": {"type": "Point", "coordinates": [-128.00445556641, 50.862744320042]}, "properties": {"kind": "places-points", "title": "T\u0315\u0142at\u0315\u0142asik\u0315\u0331wala"}}, {"type": "Feature", "geometry": {"type": "Point", "coordinates": [-127.69683837891, 50.501199132933]}, "properties": {"kind": "places-points", "title": "G\u0331ut\u0315sala"}}, {"type": "Feature", "geometry": {"type": "Point", "coordinates": [-129.07279014587, 55.200720454849]}, "properties": {"kind": "places-points", "title": "Gitlaxt\u2019aamiks"}}, {"type": "Feature", "geometry": {"type": "Point", "coordinates": [-129.1820526123, 55.204345094934]}, "properties": {"kind": "places-points", "title": "Lisims"}}, {"type": "Feature", "geometry": {"type": "Point", "coordinates": [-129.07304763794, 55.199838735748]}, "properties": {"kind": "places-points", "title": "New Aiyansh"}}, {"type": "Feature", "geometry": {"type": "Point", "coordinates": [-131.8333, 52.75]}, "properties": {"kind": "places-points", "title": "T\u2019AAXWII X\u0331AAYDAG\u0331A GWAAY.YAAY IINAG\u0331WAAY"}}]}
