{"type": "FeatureCollection", "features": [{"type": "Feature", "properties": {"type": "art", "title": "Traditional Hesquiaht Dugout Canoe", "node_id": 1179}, "geometry": {"type": "Point", "coordinates": [-123.707861, 48.778694]}}, {"type": "Feature", "properties": {"type": "art", "title": "Arrows", "node_id": 1188}, "geometry": {"type": "Point", "coordinates": [-123.41885, 48.49096]}}, {"type": "Feature", "properties": {"type": "art", "title": "A fishbowl", "node_id": 1224}, "geometry": {"type": "Point", "coordinates": [-123.323403, 48.429197]}}, {"type": "Feature", "properties": {"type": "art", "title": "The Coast ", "node_id": 1254}, "geometry": {"type": "Point", "coordinates": [-123.332475, 48.4306]}}, {"type": "Feature", "properties": {"type": "art", "title": "REEF NET by Chris Paul at the Sidney Pier Hotel", "node_id": 1266}, "geometry": {"type": "Point", "coordinates": [-123.403616, 48.653272]}}, {"type": "Feature", "properties": {"type": "art", "title": "REEF NET by Chris Paul at the Sidney Pier Hotel", "node_id": 1266}, "geometry": {"type": "Point", "coordinates": [-123.394894, 48.649363]}}, {"type": "Feature", "properties": {"type": "art", "title": "Salish Bear Pole", "node_id": 1328}, "geometry": {"type": "Point", "coordinates": [-123.559319, 48.534411]}}, {"type": "Feature", "properties": {"type": "art", "title": "Unity Wall Mural", "node_id": 15801}, "geometry": {"type": "Point", "coordinates": [-123.386425, 48.414134]}}, {"type": "Feature", "properties": {"type": "art", "title": "Re-emergence of the Lifebringers by Marianne Nicolson", "node_id": 15802}, "geometry": {"type": "Point", "coordinates": [-123.413712, 48.429979]}}, {"type": "Feature", "properties": {"type": "art", "title": "Thunderbird Orca Spindle Whorl by Charles Elliot", "node_id": 15803}, "geometry": {"type": "Point", "coordinates": [-123.414211, 48.429571]}}, {"type": "Feature", "properties": {"type": "art", "title": "Totem Pole in Beacon Hill Park carved by Mungo Martin, David Martin, and Henry Hunt", "node_id": 15811}, "geometry": {"type": "Point", "coordinates": [-123.360474, 48.409158]}}, {"type": "Feature", "properties": {"type": "art", "title": "Rock Bay Mural by Darlene Gait and Butch Dick", "node_id": 15813}, "geometry": {"type": "Point", "coordinates": [-123.367327, 48.432776]}}, {"type": "Feature", "properties": {"type": "art", "title": "The Spirit of Haida Gwaii: The Jade Canoe", "node_id": 15982}, "geometry": {"type": "Point", "coordinates": [-123.1803, 49.194395]}}, {"type": "Feature", "properties": {"type": "art", "title": "Truth and Reconciliation Bentwood Box", "node_id": 15987}, "geometry": {"type": "Point", "coordinates": [-97.138588, 49.894088]}}, {"type": "Feature", "properties": {"type": "art", "title": "Shore to Shore", "node_id": 15989}, "geometry": {"type": "Point", "coordinates": [-106.346771, 56.130366]}}, {"type": "Feature", "properties": {"type": "art", "title": "Shore to Shore", "node_id": 15989}, "geometry": {"type": "Point", "coordinates": [-123.1205, 49.29894]}}, {"type": "Feature", "properties": {"type": "art", "title": "Quench - Duncan Centennial Drinking Fountain 2012", "node_id": 15993}, "geometry": {"type": "Point", "coordinates": [-106.346771, 56.130366]}}, {"type": "Feature", "properties": {"type": "art", "title": "Quench - Duncan Centennial Drinking Fountain 2012", "node_id": 15993}, "geometry": {"type": "Point", "coordinates": [-123.7082, 48.778731]}}, {"type": "Feature", "properties": {"type": "art", "title": "Flower Beadwork People", "node_id": 16006}, "geometry": {"type": "Point", "coordinates": [-122.757423, 53.91646]}}, {"type": "Feature", "properties": {"type": "art", "title": "Flower Beadwork People", "node_id": 16006}, "geometry": {"type": "Point", "coordinates": [-122.7575, 53.916379]}}, {"type": "Feature", "properties": {"type": "art", "title": "My ART.", "node_id": 16009}, "geometry": {"type": "Point", "coordinates": [-122.668336, 49.137306]}}, {"type": "Feature", "properties": {"type": "art", "title": "En Cha Ghuna (He too Lives)", "node_id": 16021}, "geometry": {"type": "Point", "coordinates": [-106.346771, 56.130366]}}, {"type": "Feature", "properties": {"type": "art", "title": "Successful Journey", "node_id": 16573}, "geometry": {"type": "Point", "coordinates": [-123.112477, 49.288246]}}, {"type": "Feature", "properties": {"type": "art", "title": "People Amongst the People Portal: Male and Female Welcome Figures", "node_id": 16574}, "geometry": {"type": "Point", "coordinates": [-123.121266, 49.298699]}}, {"type": "Feature", "properties": {"type": "art", "title": "People Amongst the People Portal: Grandparents and Grandchildren Honoured", "node_id": 16575}, "geometry": {"type": "Point", "coordinates": [-123.121266, 49.298699]}}, {"type": "Feature", "properties": {"type": "art", "title": "People Amongst the People Portal: Salish Dancer and Killer Whale", "node_id": 16576}, "geometry": {"type": "Point", "coordinates": [-123.121266, 49.298699]}}, {"type": "Feature", "properties": {"type": "art", "title": "Raven: Spirit of Transformation", "node_id": 16577}, "geometry": {"type": "Point", "coordinates": [-123.13409, 49.301954]}}, {"type": "Feature", "properties": {"type": "art", "title": "Rose Cole Yelton Memorial Totem Pole", "node_id": 16578}, "geometry": {"type": "Point", "coordinates": [-123.120849, 49.299301]}}, {"type": "Feature", "properties": {"type": "art", "title": "Centennial Totem Pole", "node_id": 16579}, "geometry": {"type": "Point", "coordinates": [-123.147647, 49.277068]}}, {"type": "Feature", "properties": {"type": "art", "title": "Sea to Sky", "node_id": 16580}, "geometry": {"type": "Point", "coordinates": [-123.113784, 49.280039]}}, {"type": "Feature", "properties": {"type": "art", "title": "Heartbeat", "node_id": 16581}, "geometry": {"type": "Point", "coordinates": [-123.112455, 49.279913]}}, {"type": "Feature", "properties": {"type": "art", "title": "Time Immemorial", "node_id": 16582}, "geometry": {"type": "Point", "coordinates": [-123.115625, 49.279786]}}, {"type": "Feature", "properties": {"type": "art", "title": "Spirits of the Realms", "node_id": 16583}, "geometry": {"type": "Point", "coordinates": [-123.1105, 49.28006]}}, {"type": "Feature", "properties": {"type": "art", "title": "Nek\u00fa nets\u00ed kezhi", "node_id": 16584}, "geometry": {"type": "Point", "coordinates": [-123.119083, 49.281865]}}, {"type": "Feature", "properties": {"type": "art", "title": "Naa Tsmah", "node_id": 16585}, "geometry": {"type": "Point", "coordinates": [-123.105256, 49.282171]}}, {"type": "Feature", "properties": {"type": "art", "title": "Vitality", "node_id": 16586}, "geometry": {"type": "Point", "coordinates": [-122.969729, 49.240097]}}, {"type": "Feature", "properties": {"type": "art", "title": "Ravens", "node_id": 16587}, "geometry": {"type": "Point", "coordinates": [-123.197647, 49.173541]}}, {"type": "Feature", "properties": {"type": "art", "title": "Fish Trap Way", "node_id": 16588}, "geometry": {"type": "Point", "coordinates": [-123.155328, 49.174316]}}, {"type": "Feature", "properties": {"type": "art", "title": "Buttress Runnels", "node_id": 16589}, "geometry": {"type": "Point", "coordinates": [-123.151669, 49.174647]}}, {"type": "Feature", "properties": {"type": "art", "title": "Achieving a Dream", "node_id": 16590}, "geometry": {"type": "Point", "coordinates": [-123.151669, 49.174647]}}, {"type": "Feature", "properties": {"type": "art", "title": "Welcome Figures", "node_id": 16592}, "geometry": {"type": "Point", "coordinates": [-123.177926, 49.195506]}}, {"type": "Feature", "properties": {"type": "art", "title": "Musqueam Welcome Figures", "node_id": 16593}, "geometry": {"type": "Point", "coordinates": [-123.177926, 49.195506]}}, {"type": "Feature", "properties": {"type": "art", "title": "Flight (Spindle Whorl)", "node_id": 16594}, "geometry": {"type": "Point", "coordinates": [-123.177926, 49.195506]}}, {"type": "Feature", "properties": {"type": "art", "title": "Out of the Silence", "node_id": 16595}, "geometry": {"type": "Point", "coordinates": [-123.177926, 49.195506]}}, {"type": "Feature", "properties": {"type": "art", "title": "The Story of Fog Woman and Raven", "node_id": 16596}, "geometry": {"type": "Point", "coordinates": [-123.177926, 49.195506]}}, {"type": "Feature", "properties": {"type": "art", "title": "Orca Chief and the Kelp Forest", "node_id": 16597}, "geometry": {"type": "Point", "coordinates": [-123.177926, 49.195506]}}, {"type": "Feature", "properties": {"type": "art", "title": "King Salmon Housefront", "node_id": 16598}, "geometry": {"type": "Point", "coordinates": [-123.177926, 49.195506]}}, {"type": "Feature", "properties": {"type": "art", "title": "Transformation Mask", "node_id": 16599}, "geometry": {"type": "Point", "coordinates": [-123.177926, 49.195506]}}, {"type": "Feature", "properties": {"type": "art", "title": "Hetux", "node_id": 16600}, "geometry": {"type": "Point", "coordinates": [-123.177926, 49.195506]}}, {"type": "Feature", "properties": {"type": "art", "title": "The Rivers Monument", "node_id": 16601}, "geometry": {"type": "Point", "coordinates": [-123.177926, 49.195506]}}, {"type": "Feature", "properties": {"type": "art", "title": "Raven Stealing the Beaver Lake", "node_id": 16602}, "geometry": {"type": "Point", "coordinates": [-123.177926, 49.195506]}}, {"type": "Feature", "properties": {"type": "art", "title": "Freedom to Move", "node_id": 16603}, "geometry": {"type": "Point", "coordinates": [-123.177926, 49.195506]}}, {"type": "Feature", "properties": {"type": "art", "title": "Sky to Sky (YVR)", "node_id": 16604}, "geometry": {"type": "Point", "coordinates": [-123.177926, 49.195506]}}, {"type": "Feature", "properties": {"type": "art", "title": "Snuw'uy'ulth", "node_id": 16605}, "geometry": {"type": "Point", "coordinates": [-123.177926, 49.195506]}}, {"type": "Feature", "properties": {"type": "art", "title": "Raven House Posts", "node_id": 16606}, "geometry": {"type": "Point", "coordinates": [-123.177926, 49.195506]}}, {"type": "Feature", "properties": {"type": "art", "title": "Hugging the World", "node_id": 16607}, "geometry": {"type": "Point", "coordinates": [-123.177926, 49.195506]}}, {"type": "Feature", "properties": {"type": "art", "title": "Thunderbird and Killer Whale", "node_id": 16608}, "geometry": {"type": "Point", "coordinates": [-123.177926, 49.195506]}}, {"type": "Feature", "properties": {"type": "art", "title": "Human/Bear Masks", "node_id": 16609}, "geometry": {"type": "Point", "coordinates": [-123.177926, 49.195506]}}, {"type": "Feature", "properties": {"type": "art", "title": "Cedar Connection", "node_id": 16610}, "geometry": {"type": "Point", "coordinates": [-123.177926, 49.195506]}}, {"type": "Feature", "properties": {"type": "art", "title": "Celebrating Flight", "node_id": 16611}, "geometry": {"type": "Point", "coordinates": [-123.177926, 49.195506]}}, {"type": "Feature", "properties": {"type": "art", "title": "Lorne Balshine Inuit Art Collection", "node_id": 16612}, "geometry": {"type": "Point", "coordinates": [-123.177926, 49.195506]}}, {"type": "Feature", "properties": {"type": "art", "title": "Chief of the Undersea World", "node_id": 16613}, "geometry": {"type": "Point", "coordinates": [-123.130468, 49.299712]}}, {"type": "Feature", "properties": {"type": "art", "title": "Reconciliation Pole", "node_id": 16614}, "geometry": {"type": "Point", "coordinates": [-123.248928, 49.260079]}}, {"type": "Feature", "properties": {"type": "art", "title": "Human Spirit", "node_id": 16615}, "geometry": {"type": "Point", "coordinates": [-123.112477, 49.288246]}}, {"type": "Feature", "properties": {"type": "art", "title": "Hupakwanum: The Chief's Treasure Box", "node_id": 16618}, "geometry": {"type": "Point", "coordinates": [-106.346771, 56.130366]}}, {"type": "Feature", "properties": {"type": "art", "title": "Hupakwanum: The Chief's Treasure Box", "node_id": 16618}, "geometry": {"type": "Point", "coordinates": [-123.151669, 49.174647]}}, {"type": "Feature", "properties": {"type": "art", "title": "Authentic Aboriginal", "node_id": 16743}, "geometry": {"type": "Point", "coordinates": [-123.152012, 49.17416]}}, {"type": "Feature", "properties": {"type": "art", "title": "A Distance Transformed", "node_id": 16744}, "geometry": {"type": "Point", "coordinates": [-123.127937, 49.18942]}}, {"type": "Feature", "properties": {"type": "art", "title": "Soo Gee Ghet", "node_id": 16752}, "geometry": {"type": "Point", "coordinates": [-123.141082, 49.163427]}}, {"type": "Feature", "properties": {"type": "art", "title": "Dugout single racing canoe with sea wolf head and tail ", "node_id": 16776}, "geometry": {"type": "Point", "coordinates": [-106.346771, 56.130366]}}, {"type": "Feature", "properties": {"type": "event", "title": "8th Cowichan International Aboriginal Festival of Film & Art - April 17-21 2012", "node_id": 68}, "geometry": {"type": "Point", "coordinates": [-123.710274, 48.779362]}}, {"type": "Feature", "properties": {"type": "event", "title": "Gathering our Voices: 2017 Aboriginal Youth Conference", "node_id": 1169}, "geometry": {"type": "Point", "coordinates": [-119.49708, 49.891852]}}, {"type": "Feature", "properties": {"type": "event", "title": "Coastal First Nations Dance Festival 2011", "node_id": 1180}, "geometry": {"type": "Point", "coordinates": [-123.259091, 49.268855]}}, {"type": "Feature", "properties": {"type": "event", "title": "Talking Stick Festival 2012", "node_id": 1186}, "geometry": {"type": "Point", "coordinates": [-123.122579, 49.27275]}}, {"type": "Feature", "properties": {"type": "event", "title": "The First Peoples' Festival", "node_id": 1305}, "geometry": {"type": "Point", "coordinates": [-123.364494, 48.42806]}}, {"type": "Feature", "properties": {"type": "event", "title": "Raven Spirit Dance - Gathering Light Fundraiser Performance", "node_id": 1317}, "geometry": {"type": "Point", "coordinates": [-123.07965, 49.315296]}}, {"type": "Feature", "properties": {"type": "event", "title": "All Nations Festival 2013", "node_id": 1344}, "geometry": {"type": "Point", "coordinates": [-122.845792, 49.278872]}}, {"type": "Feature", "properties": {"type": "event", "title": "First Peoples' Festival 2013", "node_id": 1345}, "geometry": {"type": "Point", "coordinates": [-123.369724, 48.424438]}}, {"type": "Feature", "properties": {"type": "event", "title": "Annual Gitxsan Picnic", "node_id": 1346}, "geometry": {"type": "Point", "coordinates": [-123.357769, 48.408503]}}, {"type": "Feature", "properties": {"type": "event", "title": "Kamloopa Pow Wow", "node_id": 1347}, "geometry": {"type": "Point", "coordinates": [-120.298879, 50.73324]}}, {"type": "Feature", "properties": {"type": "event", "title": "Beat Nation", "node_id": 1348}, "geometry": {"type": "Point", "coordinates": [-120.331739, 50.675828]}}, {"type": "Feature", "properties": {"type": "event", "title": "BC Elders Gathering 2013", "node_id": 1349}, "geometry": {"type": "Point", "coordinates": [-122.815926, 53.907944]}}, {"type": "Feature", "properties": {"type": "event", "title": "\u201cSpeaks From The Heart\u201d Digital Storytelling \u2013 Media Arts Finalist 2014", "node_id": 14854}, "geometry": {"type": "Point", "coordinates": [-106.346771, 56.130366]}}, {"type": "Feature", "properties": {"type": "event", "title": "T'SOU-KE ARTS GROUP (TAG) CHRISTMAS ARTS SHOW", "node_id": 14930}, "geometry": {"type": "Point", "coordinates": [-123.696765, 48.3873]}}, {"type": "Feature", "properties": {"type": "event", "title": "39th Annual Elders Gathering", "node_id": 15417}, "geometry": {"type": "Point", "coordinates": [-123.422855, 48.625296]}}, {"type": "Feature", "properties": {"type": "event", "title": "40th Annual BC Elders Gathering", "node_id": 15800}, "geometry": {"type": "Point", "coordinates": [-122.138351, 52.131448]}}, {"type": "Feature", "properties": {"type": "event", "title": "Intro to Screenprinting Workshop", "node_id": 15856}, "geometry": {"type": "Point", "coordinates": [-124.998204, 49.680406]}}, {"type": "Feature", "properties": {"type": "event", "title": "Intro to Screenprinting Workshop", "node_id": 15857}, "geometry": {"type": "Point", "coordinates": [-124.998204, 49.680406]}}, {"type": "Feature", "properties": {"type": "event", "title": "Talking Stick Festival 2018", "node_id": 15978}, "geometry": {"type": "Point", "coordinates": [-106.346771, 56.130366]}}, {"type": "Feature", "properties": {"type": "event", "title": "Innovative Young Indigenous Leaders Symposium", "node_id": 16007}, "geometry": {"type": "Point", "coordinates": [-123.365644, 48.428421]}}, {"type": "Feature", "properties": {"type": "event", "title": "Mob Bounce with Special Guests Khast'an Drummers", "node_id": 16019}, "geometry": {"type": "Point", "coordinates": [-122.743374, 53.91612]}}, {"type": "Feature", "properties": {"type": "event", "title": "Storytelling through Visual and Performing Arts", "node_id": 16024}, "geometry": {"type": "Point", "coordinates": [-122.743374, 53.91612]}}, {"type": "Feature", "properties": {"type": "event", "title": "Indigenous Youth Storytelling Workshops - May 16, 17", "node_id": 16481}, "geometry": {"type": "Point", "coordinates": [-106.346771, 56.130366]}}, {"type": "Feature", "properties": {"type": "event", "title": "'Q'emcin 2 Rivers Remix", "node_id": 16622}, "geometry": {"type": "Point", "coordinates": [-121.581521, 50.23131]}}, {"type": "Feature", "properties": {"type": "event", "title": "Excerpt performance of \"Mixed-up!\"", "node_id": 16623}, "geometry": {"type": "Point", "coordinates": [-106.346771, 56.130366]}}, {"type": "Feature", "properties": {"type": "event", "title": "Excerpt performance of \"Mixed-up!\"", "node_id": 16624}, "geometry": {"type": "Point", "coordinates": [-123.361667, 48.428997]}}, {"type": "Feature", "properties": {"type": "event", "title": "Victoria Indigenous Cultural Festival - 2018", "node_id": 16637}, "geometry": {"type": "Point", "coordinates": [-123.369173, 48.420874]}}, {"type": "Feature", "properties": {"type": "event", "title": "Indigenous Peoples Day hosted by Little Shuswap Lake Indian Band at Quaaout Lodge", "node_id": 16638}, "geometry": {"type": "Point", "coordinates": [-119.616223, 50.875501]}}, {"type": "Feature", "properties": {"type": "event", "title": "Arts Grant Info Session - July 5th", "node_id": 16639}, "geometry": {"type": "Point", "coordinates": [-123.374905, 48.427075]}}, {"type": "Feature", "properties": {"type": "event", "title": "ACE-A Art Show", "node_id": 16748}, "geometry": {"type": "Point", "coordinates": [-123.366129, 48.420591]}}, {"type": "Feature", "properties": {"type": "event", "title": "Santa Fe Art Institute Residency: Truth and Reconciliation", "node_id": 16764}, "geometry": {"type": "Point", "coordinates": [-106.346771, 56.130366]}}, {"type": "Feature", "properties": {"type": "event", "title": "'Q'emcin 2 Rivers Remix 2019", "node_id": 16773}, "geometry": {"type": "Point", "coordinates": [-121.581521, 50.23131]}}, {"type": "Feature", "properties": {"type": "org", "title": "First Peoples' Cultural Council", "node_id": 5}, "geometry": {"type": "Point", "coordinates": [-123.466036, 48.580811]}}, {"type": "Feature", "properties": {"type": "org", "title": "U'mista Cultural Society", "node_id": 35}, "geometry": {"type": "Point", "coordinates": [-126.941571, 50.593762]}}, {"type": "Feature", "properties": {"type": "org", "title": "Xa:ytem Longhouse Interpretive Centre", "node_id": 36}, "geometry": {"type": "Point", "coordinates": [-122.251998, 49.149798]}}, {"type": "Feature", "properties": {"type": "org", "title": "Ksan Historical Village & Museum", "node_id": 37}, "geometry": {"type": "Point", "coordinates": [-127.675129, 55.250105]}}, {"type": "Feature", "properties": {"type": "org", "title": "Museum of Northern British Columbia", "node_id": 38}, "geometry": {"type": "Point", "coordinates": [-130.322895, 54.316645]}}, {"type": "Feature", "properties": {"type": "org", "title": "Xats'ull Heritage Village", "node_id": 39}, "geometry": {"type": "Point", "coordinates": [-122.064924, 52.248958]}}, {"type": "Feature", "properties": {"type": "org", "title": "Haida Heritage Centre at Kaay Llnagaay", "node_id": 49}, "geometry": {"type": "Point", "coordinates": [-131.997339, 53.249592]}}, {"type": "Feature", "properties": {"type": "org", "title": "NK'MIP Desert Cultural Centre", "node_id": 50}, "geometry": {"type": "Point", "coordinates": [-119.46752, 49.0211]}}, {"type": "Feature", "properties": {"type": "org", "title": "Squamish Lil'wat Cultural Centre", "node_id": 51}, "geometry": {"type": "Point", "coordinates": [-122.95877, 50.116299]}}, {"type": "Feature", "properties": {"type": "org", "title": "Nuyumbalees Cultural Centre", "node_id": 52}, "geometry": {"type": "Point", "coordinates": [-125.22809, 50.08986]}}, {"type": "Feature", "properties": {"type": "org", "title": "Quw'utsun' Cultural and Conference Centre", "node_id": 53}, "geometry": {"type": "Point", "coordinates": [-123.70194, 48.773087]}}, {"type": "Feature", "properties": {"type": "org", "title": "Secwepemc Museum & Heritage Park", "node_id": 54}, "geometry": {"type": "Point", "coordinates": [-120.267996, 50.858789]}}, {"type": "Feature", "properties": {"type": "org", "title": "En'owkin Cultural Centre", "node_id": 55}, "geometry": {"type": "Point", "coordinates": [-119.598178, 49.478757]}}, {"type": "Feature", "properties": {"type": "org", "title": "Coqualeetza Cultural Education Centre", "node_id": 56}, "geometry": {"type": "Point", "coordinates": [-121.96036, 49.133791]}}, {"type": "Feature", "properties": {"type": "org", "title": "Heiltsuk Cultural Education Centre", "node_id": 57}, "geometry": {"type": "Point", "coordinates": [-127.78, 52.64]}}, {"type": "Feature", "properties": {"type": "org", "title": "BC Elders Communication Centre Society", "node_id": 69}, "geometry": {"type": "Point", "coordinates": [-125.254999, 50.030891]}}, {"type": "Feature", "properties": {"type": "org", "title": "Le La-La Dancers", "node_id": 1182}, "geometry": {"type": "Point", "coordinates": [-123.323773, 48.42855]}}, {"type": "Feature", "properties": {"type": "org", "title": "Culture on the Coast", "node_id": 1261}, "geometry": {"type": "Point", "coordinates": [-124.803085, 49.260182]}}, {"type": "Feature", "properties": {"type": "org", "title": "Hesquiaht Language Program", "node_id": 1272}, "geometry": {"type": "Point", "coordinates": [-126.2625, 49.366667]}}, {"type": "Feature", "properties": {"type": "org", "title": "Syixcha'awt Gift Shop", "node_id": 1274}, "geometry": {"type": "Point", "coordinates": [-121.959986, 49.134338]}}, {"type": "Feature", "properties": {"type": "org", "title": "T'SOU-KE ARTS GROUP (TAG)", "node_id": 1275}, "geometry": {"type": "Point", "coordinates": [-123.699442, 48.387205]}}, {"type": "Feature", "properties": {"type": "org", "title": "Sookinchoot Youth Leadership Program", "node_id": 1303}, "geometry": {"type": "Point", "coordinates": [-119.270711, 50.26375]}}, {"type": "Feature", "properties": {"type": "org", "title": "Arbor Collective ", "node_id": 1313}, "geometry": {"type": "Point", "coordinates": [-120.327267, 50.674522]}}, {"type": "Feature", "properties": {"type": "org", "title": "Indigenous Film Commission", "node_id": 1318}, "geometry": {"type": "Point", "coordinates": [-115.862196, 49.606022]}}, {"type": "Feature", "properties": {"type": "org", "title": "Bill Reid Gallery of Northwest Coast Art", "node_id": 1333}, "geometry": {"type": "Point", "coordinates": [-123.119144, 49.284576]}}, {"type": "Feature", "properties": {"type": "org", "title": "Longhouse Education and Cultural Center", "node_id": 1334}, "geometry": {"type": "Point", "coordinates": [-122.97673, 47.073414]}}, {"type": "Feature", "properties": {"type": "org", "title": "ULLUS Collective", "node_id": 14762}, "geometry": {"type": "Point", "coordinates": [-119.605499, 49.479261]}}, {"type": "Feature", "properties": {"type": "org", "title": "Gitxsan Health Society", "node_id": 15198}, "geometry": {"type": "Point", "coordinates": [-128.087521, 55.807028]}}, {"type": "Feature", "properties": {"type": "org", "title": "Klahoose First Nations", "node_id": 15199}, "geometry": {"type": "Point", "coordinates": [-124.948928, 50.116728]}}, {"type": "Feature", "properties": {"type": "org", "title": "Okanagan Indian Band, Territorial Stewardship Division", "node_id": 15200}, "geometry": {"type": "Point", "coordinates": [-119.345779, 50.261402]}}, {"type": "Feature", "properties": {"type": "org", "title": "Secwepemc Child and Family Services Agency", "node_id": 15201}, "geometry": {"type": "Point", "coordinates": [-120.338099, 50.693334]}}, {"type": "Feature", "properties": {"type": "org", "title": "Wa'aas Weavers", "node_id": 15202}, "geometry": {"type": "Point", "coordinates": [-123.36036, 48.445786]}}, {"type": "Feature", "properties": {"type": "org", "title": "Daylu Dena Council", "node_id": 15203}, "geometry": {"type": "Point", "coordinates": [-128.496522, 59.924296]}}, {"type": "Feature", "properties": {"type": "org", "title": "First Nations, Inuit and Metis Artist Collective", "node_id": 15204}, "geometry": {"type": "Point", "coordinates": [-123.403519, 48.648311]}}, {"type": "Feature", "properties": {"type": "org", "title": "Fort Nelson First Nation ", "node_id": 15205}, "geometry": {"type": "Point", "coordinates": [-122.575259, 58.842527]}}, {"type": "Feature", "properties": {"type": "org", "title": "Gitwangak Education Society", "node_id": 15206}, "geometry": {"type": "Point", "coordinates": [-127.944096, 55.1174]}}, {"type": "Feature", "properties": {"type": "org", "title": "Haida Gwaii Museum", "node_id": 15207}, "geometry": {"type": "Point", "coordinates": [-127.73769, 52.881216]}}, {"type": "Feature", "properties": {"type": "org", "title": "Kama Creative Aboriginal Arts Collective", "node_id": 15208}, "geometry": {"type": "Point", "coordinates": [-119.345779, 50.261402]}}, {"type": "Feature", "properties": {"type": "org", "title": "Musqueam Indian Band", "node_id": 15209}, "geometry": {"type": "Point", "coordinates": [-123.197453, 49.226688]}}, {"type": "Feature", "properties": {"type": "org", "title": "Na Aksa Gila Kyew Learning Centre", "node_id": 15210}, "geometry": {"type": "Point", "coordinates": [-128.290014, 53.997529]}}, {"type": "Feature", "properties": {"type": "org", "title": "Native Education College", "node_id": 15211}, "geometry": {"type": "Point", "coordinates": [-123.099687, 49.266674]}}, {"type": "Feature", "properties": {"type": "org", "title": "Nkmaplks", "node_id": 15212}, "geometry": {"type": "Point", "coordinates": [-119.345779, 50.261402]}}, {"type": "Feature", "properties": {"type": "org", "title": "Red: Digital Media Lab Collective", "node_id": 15213}, "geometry": {"type": "Point", "coordinates": [-123.116905, 49.269384]}}, {"type": "Feature", "properties": {"type": "org", "title": "Savage Society", "node_id": 15214}, "geometry": {"type": "Point", "coordinates": [-122.918905, 49.207643]}}, {"type": "Feature", "properties": {"type": "org", "title": "Skwlax Cultural Arts Group", "node_id": 15215}, "geometry": {"type": "Point", "coordinates": [-119.482837, 50.91968]}}, {"type": "Feature", "properties": {"type": "org", "title": "Arbour Collective", "node_id": 15216}, "geometry": {"type": "Point", "coordinates": [-120.338743, 50.656917]}}, {"type": "Feature", "properties": {"type": "org", "title": "Wachiay Friendship Centre ", "node_id": 15220}, "geometry": {"type": "Point", "coordinates": [-124.998531, 49.680895]}}, {"type": "Feature", "properties": {"type": "org", "title": "West Coast Women Artists Collective", "node_id": 15221}, "geometry": {"type": "Point", "coordinates": [-124.788067, 49.244231]}}, {"type": "Feature", "properties": {"type": "org", "title": "Lilwat 7ul Culture Centre", "node_id": 15222}, "geometry": {"type": "Point", "coordinates": [-122.642439, 50.312253]}}, {"type": "Feature", "properties": {"type": "org", "title": "Adams Lake Indian Band", "node_id": 15223}, "geometry": {"type": "Point", "coordinates": [-119.578223, 50.733046]}}, {"type": "Feature", "properties": {"type": "org", "title": "Arbour Collective", "node_id": 15224}, "geometry": {"type": "Point", "coordinates": [-122.739269, 53.901714]}}, {"type": "Feature", "properties": {"type": "org", "title": "BC Association of Aboriginal Friendship Centres", "node_id": 15225}, "geometry": {"type": "Point", "coordinates": [-123.368202, 48.430863]}}, {"type": "Feature", "properties": {"type": "org", "title": "Bella Coola Valley Learning Society", "node_id": 15226}, "geometry": {"type": "Point", "coordinates": [-126.762576, 52.372895]}}, {"type": "Feature", "properties": {"type": "org", "title": "Honoring our Ancestors", "node_id": 15227}, "geometry": {"type": "Point", "coordinates": [-123.753202, 49.562745]}}, {"type": "Feature", "properties": {"type": "org", "title": "Kama? Creative Aboriginal Artists Collective", "node_id": 15228}, "geometry": {"type": "Point", "coordinates": [-119.345779, 50.261402]}}, {"type": "Feature", "properties": {"type": "org", "title": "Knowledgeable Aboriginal Youth Association", "node_id": 15229}, "geometry": {"type": "Point", "coordinates": [-123.069345, 49.280535]}}, {"type": "Feature", "properties": {"type": "org", "title": "Nak'azdli Band", "node_id": 15230}, "geometry": {"type": "Point", "coordinates": [-124.172388, 54.464698]}}, {"type": "Feature", "properties": {"type": "org", "title": "Native Education College", "node_id": 15231}, "geometry": {"type": "Point", "coordinates": [-123.099687, 49.266674]}}, {"type": "Feature", "properties": {"type": "org", "title": "Nisga'a Museum", "node_id": 15232}, "geometry": {"type": "Point", "coordinates": [-129.52262, 55.054729]}}, {"type": "Feature", "properties": {"type": "org", "title": "Old Massett Village Council, Youth Program", "node_id": 15233}, "geometry": {"type": "Point", "coordinates": [-132.09902, 54.022776]}}, {"type": "Feature", "properties": {"type": "org", "title": "Gitanmax Brighter Futures", "node_id": 15234}, "geometry": {"type": "Point", "coordinates": [-128.087521, 55.807028]}}, {"type": "Feature", "properties": {"type": "org", "title": "Tansi Friendship Centre", "node_id": 15235}, "geometry": {"type": "Point", "coordinates": [-121.629503, 55.69538]}}, {"type": "Feature", "properties": {"type": "org", "title": "Tl'etinqox-t'in Government", "node_id": 15236}, "geometry": {"type": "Point", "coordinates": [-123.198196, 52.149836]}}, {"type": "Feature", "properties": {"type": "org", "title": "Tsawout First Nation", "node_id": 15237}, "geometry": {"type": "Point", "coordinates": [-123.421598, 48.584575]}}, {"type": "Feature", "properties": {"type": "org", "title": "Tseshaht First Nation", "node_id": 15238}, "geometry": {"type": "Point", "coordinates": [-124.851995, 49.262833]}}, {"type": "Feature", "properties": {"type": "org", "title": "U'mista Cultural Society", "node_id": 15239}, "geometry": {"type": "Point", "coordinates": [-126.939413, 50.521148]}}, {"type": "Feature", "properties": {"type": "org", "title": "Victoria Native Friendship Centre", "node_id": 15240}, "geometry": {"type": "Point", "coordinates": [-123.389742, 48.45582]}}, {"type": "Feature", "properties": {"type": "org", "title": "Yunesit'in First Nations Government", "node_id": 15241}, "geometry": {"type": "Point", "coordinates": [-123.080383, 51.806382]}}, {"type": "Feature", "properties": {"type": "org", "title": "North East Native Advancing Society", "node_id": 15814}, "geometry": {"type": "Point", "coordinates": [-120.853192, 56.247683]}}, {"type": "Feature", "properties": {"type": "org", "title": "Ahtsik Native Art Gallery", "node_id": 15820}, "geometry": {"type": "Point", "coordinates": [-124.8762, 49.27421]}}, {"type": "Feature", "properties": {"type": "org", "title": "Full Circle: First Nations Performance", "node_id": 15977}, "geometry": {"type": "Point", "coordinates": [-123.07489, 49.273376]}}, {"type": "Feature", "properties": {"type": "org", "title": "grunt gallery", "node_id": 15980}, "geometry": {"type": "Point", "coordinates": [-123.097053, 49.2667]}}, {"type": "Feature", "properties": {"type": "org", "title": "Bill Reid Gallery", "node_id": 15984}, "geometry": {"type": "Point", "coordinates": [-123.119348, 49.284449]}}, {"type": "Feature", "properties": {"type": "org", "title": "Canadian Artists\u2019 Representation/Le Front des Artistes Canadiens (CARFAC)", "node_id": 15995}, "geometry": {"type": "Point", "coordinates": [-75.688655, 45.425419]}}, {"type": "Feature", "properties": {"type": "org", "title": "Skwach\u00e0ys Aboriginal Fair Trade Gallery", "node_id": 15999}, "geometry": {"type": "Point", "coordinates": [-123.106186, 49.280958]}}, {"type": "Feature", "properties": {"type": "org", "title": "MiLan Art Metis Cultural Exhibition at 1025 W Georgia st Vancouver RBC", "node_id": 16000}, "geometry": {"type": "Point", "coordinates": [-123.121191, 49.284939]}}, {"type": "Feature", "properties": {"type": "org", "title": "Khast'an Drummers", "node_id": 16015}, "geometry": {"type": "Point", "coordinates": [-122.618774, 54.014153]}}, {"type": "Feature", "properties": {"type": "org", "title": "Northern Indigenous Artists' Collective", "node_id": 16025}, "geometry": {"type": "Point", "coordinates": [-122.77668, 53.910406]}}, {"type": "Feature", "properties": {"type": "org", "title": "North Van Arts", "node_id": 16632}, "geometry": {"type": "Point", "coordinates": [-123.076763, 49.314051]}}, {"type": "Feature", "properties": {"type": "org", "title": "Alpha-Omega Productions", "node_id": 16754}, "geometry": {"type": "Point", "coordinates": [-120.352274, 50.665443]}}, {"type": "Feature", "properties": {"type": "org", "title": "Surrey Art Gallery", "node_id": 16772}, "geometry": {"type": "Point", "coordinates": [-122.841116, 49.159011]}}]}